{
  "type": "FeatureCollection",
  "features": [
    {
      "type": "Feature",
      "properties": {
        "Name": "Dutch Pot",
        "Describe": "Carribean takeaway",
        "Created by": "Robin",
        "Type": "Takeaway"
      },
      "geometry": {
        "type": "Point",
        "coordinates": [
          -1.531230211257935,
          53.8169195780984
        ]
      }
    },
    {
      "type": "Feature",
      "properties": {
        "Name": "Inkwell",
        "Describe": "Community Cafe + venue",
        "Created by": "Robin",
        "Type": "Cafe"
      },
      "geometry": {
        "type": "Point",
        "coordinates": [
          -1.534652709960938,
          53.82462095897264
        ]
      }
    },
    {
      "type": "Feature",
      "properties": {
        "Name": "Green Action",
        "Describe": "Food Coop",
        "Created by": "Robin",
        "Type": "Food"
      },
      "geometry": {
        "type": "Point",
        "coordinates": [
          -1.556625366210938,
          53.8065622829677
        ]
      }
    },
    {
      "type": "Feature",
      "properties": {
        "Name": "Pedaller's Arms",
        "Describe": "Bicycle coop",
        "Created by": "Robin",
        "Type": "Bicycle"
      },
      "geometry": {
        "type": "Point",
        "coordinates": [
          -1.532732248306274,
          53.80072369501686
        ]
      }
    },
    {
      "type": "Feature",
      "properties": {
        "Name": "CC Continental Supermarket",
        "Describe": "Wide range of foods including large veg. section. Good for bulk buying",
        "Created by": "All",
        "Type": "Food"
      },
      "geometry": {
        "type": "Point",
        "coordinates": [
          -1.533935180179076,
          53.81368135391169
        ]
      }
    },
    {
      "type": "Feature",
      "properties": {
        "Name": "Cost Cutter",
        "Describe": "Cheap, fast grocers",
        "Created by": "All",
        "Type": "Food"
      },
      "geometry": {
        "type": "Point",
        "coordinates": [
          -1.532342829900014,
          53.815575682333225
        ]
      }
    },
    {
      "type": "Feature",
      "properties": {
        "Name": "Medina",
        "Describe": "Independent grocers with small veg. section",
        "Created by": "All",
        "Type": "Food"
      },
      "geometry": {
        "type": "Point",
        "coordinates": [
          -1.53230282367085,
          53.81563463338199
        ]
      }
    },
    {
      "type": "Feature",
      "properties": {
        "Name": "Stanton's Hardware Store",
        "Describe": "Indepent, friendly and remarkably well-stocked hardware store",
        "Created by": "Rebecca",
        "Type": "Hardware"
      },
      "geometry": {
        "type": "Point",
        "coordinates": [
          -1.517010864833865,
          53.811054379270885
        ]
      }
    },
    {
      "type": "Feature",
      "properties": {
        "Name": "Cantor Fish and Chip Bar",
        "Describe": "1:30 filling portion of chips - bit soft but in paper - will batter your food!",
        "Created by": "Clare",
        "Type": "Food"
      },
      "geometry": {
        "type": "Point",
        "coordinates": [
          -1.53104563455552,
          53.81736771996215
        ]
      }
    },
    {
      "type": "Feature",
      "properties": {
        "Name": "Skate park",
        "Describe": "Mini ramps + hangout spot",
        "Created by": "Robin",
        "Type": "Sports"
      },
      "geometry": {
        "type": "Point",
        "coordinates": [
          -1.5240097045898438,
          53.819250408517334
        ]
      }
    },
    {
      "type": "Feature",
      "properties": {
        "Name": "Train station!",
        "Describe": "Test ",
        "Created by": "test",
        "Type": "test"
      },
      "geometry": {
        "type": "Point",
        "coordinates": [
          -1.5481281280517578,
          53.7949223177007
        ]
      }
    },
    {
      "type": "Feature",
      "properties": {
        "Name": "Hansas",
        "Describe": "Vegetarian restaurant ",
        "Created by": "Cath",
        "Type": "Eat in"
      },
      "geometry": {
        "type": "Point",
        "coordinates": [
          -1.5378713607788086,
          53.80162662258455
        ]
      }
    },
    {
      "type": "Feature",
      "properties": {
        "Name": "Wharf Chambers",
        "Describe": "Cooperative bar",
        "Created by": "Luke",
        "Type": "Bar"
      },
      "geometry": {
        "type": "Point",
        "coordinates": [
          -1.5379813313484192,
          53.79542137542354
        ]
      }
    },
    {
      "type": "Feature",
      "properties": {
        "Name": "Meanwood Valley Urban Farm",
        "Describe": "Cheep bikes, good food, fun",
        "Created by": "Cath",
        "Type": "Food"
      },
      "geometry": {
        "type": "Point",
        "coordinates": [
          -1.550493836402893,
          53.81887989115229
        ]
      }
    },
    {
      "type": "Feature",
      "properties": {
        "Name": "Uni mushroomy path",
        "Describe": "Shaggy inkcaps here",
        "Created by": "Kat",
        "Type": "Foraging"
      },
      "geometry": {
        "type": "Point",
        "coordinates": [
          -1.5529534220695496,
          53.8068030320266
        ]
      }
    },
    {
      "type": "Feature",
      "properties": {
        "Name": "The Grove",
        "Describe": "Folk, bluegrass pub",
        "Created by": "Luke + Riley",
        "Type": "Bar"
      },
      "geometry": {
        "type": "Point",
        "coordinates": [
          -1.5478277206420898,
          53.79122118369246
        ]
      }
    },
    {
      "type": "Feature",
      "properties": {
        "Name": "Grove Cafe",
        "Describe": "Vegan Pizza and other afforbable goodies",
        "Created by": "Jason, Luke D's mate",
        "Type": "Eat in"
      },
      "geometry": {
        "type": "Point",
        "coordinates": [
          -1.5749287605285645,
          53.81043310682012
        ]
      }
    },
    {
      "type": "Feature",
      "properties": {
        "Name": "Meanwood Community Shop",
        "Describe": "2nd hand books, clothes etc v. cheap ",
        "Created by": "Ellie"
      },
      "geometry": {
        "type": "Point",
        "coordinates": [
          -1.5667963027954102,
          53.828999854692974
        ]
      }
    },
    {
      "type": "Feature",
      "properties": {
        "Name": "Chapel Allerton Librarz"
      },
      "geometry": {
        "type": "Point",
        "coordinates": [
          -1.5372705459594724,
          53.82824315850094
        ]
      }
    },
    {
      "type": "Feature",
      "properties": {
        "Name": "Reginald Centre & Chapeltown library",
        "Describe": "The place to go for housing benefit, and Chapeltown library",
        "Created by": "Flo"
      },
      "geometry": {
        "type": "Point",
        "coordinates": [
          -1.5313911437988281,
          53.817286945846625
        ]
      }
    },
    {
      "type": "Feature",
      "properties": {
        "Name": "The Greedy Pig",
        "Describe": "Lovely cafe, they know what vegan means",
        "Created by": "Flo"
      },
      "geometry": {
        "type": "Point",
        "coordinates": [
          -1.538686752319336,
          53.80125911756995
        ]
      }
    },
    {
      "type": "Feature",
      "properties": {
        "Name": "Cafe Lento ",
        "Describe": "Cultural Cafe, Great jazz gigs on friday nights fortnightly ",
        "Created by": "Luke T ",
        "Type": "Cafe "
      },
      "geometry": {
        "type": "Point",
        "coordinates": [
          -1.581124663352966,
          53.81999784242207
        ]
      }
    },
    {
      "type": "Feature",
      "properties": {
        "Name": "Vantage Point ",
        "Describe": "Great night view of city",
        "Created by": "Luke T ",
        "Type": "View "
      },
      "geometry": {
        "type": "Point",
        "coordinates": [
          -1.549597978591919,
          53.82173951575561
        ]
      }
    },
    {
      "type": "Feature",
      "properties": {
        "Name": "Seagulls",
        "Describe": "2nd hand paint",
        "Created by": "Robin",
        "Type": "Hardware"
      },
      "geometry": {
        "type": "Point",
        "coordinates": [
          -1.5722143650054932,
          53.801354162279075
        ]
      }
    },
    {
      "type": "Feature",
      "properties": {
        "Name": "In Touch",
        "Describe": "Massage and holistic therapies",
        "Created by": "Robin",
        "Type": "Health"
      },
      "geometry": {
        "type": "Point",
        "coordinates": [
          -1.5320348739624021,
          53.81665355116696
        ]
      }
    },
    {
      "type": "Feature",
      "properties": {
        "Name": "St Martin's Practice",
        "Describe": "GPs",
        "Created by": "Robin",
        "Type": "Health"
      },
      "geometry": {
        "type": "Point",
        "coordinates": [
          -1.5331238508224487,
          53.822170097398015
        ]
      }
    }
  ]
}