{
  "type": "FeatureCollection",
  "features": [
    {
      "type": "Feature",
      "properties": {
        "Name": "Dutch Pot",
        "Describe": "Carribean takeaway",
        "Created by": "Robin",
        "Type": "Takeaway"
      },
      "geometry": {
        "type": "Point",
        "coordinates": [
          -1.531230211257935,
          53.8169195780984
        ]
      }
    },
    {
      "type": "Feature",
      "properties": {
        "Name": "Inkwell",
        "Describe": "Community Cafe + venue",
        "Created by": "Robin",
        "Type": "Cafe"
      },
      "geometry": {
        "type": "Point",
        "coordinates": [
          -1.534652709960938,
          53.82462095897264
        ]
      }
    },
    {
      "type": "Feature",
      "properties": {
        "Name": "Green Action",
        "Describe": "Food Coop",
        "Created by": "Robin",
        "Type": "Food"
      },
      "geometry": {
        "type": "Point",
        "coordinates": [
          -1.556625366210938,
          53.8065622829677
        ]
      }
    },
    {
      "type": "Feature",
      "properties": {
        "Name": "Pedaller's Arms",
        "Describe": "Bicycle coop",
        "Created by": "Robin",
        "Type": "Bicycle"
      },
      "geometry": {
        "type": "Point",
        "coordinates": [
          -1.532732248306274,
          53.80072369501686
        ]
      }
    },
    {
      "type": "Feature",
      "properties": {
        "Name": "CC Continental Supermarket",
        "Describe": "Wide range of foods including large veg. section. Good for bulk buying",
        "Created by": "All",
        "Type": "Food"
      },
      "geometry": {
        "type": "Point",
        "coordinates": [
          -1.533935180179076,
          53.81368135391169
        ]
      }
    },
    {
      "type": "Feature",
      "properties": {
        "Name": "Cost Cutter",
        "Describe": "Cheap, fast grocers",
        "Created by": "All",
        "Type": "Food"
      },
      "geometry": {
        "type": "Point",
        "coordinates": [
          -1.532342829900014,
          53.815575682333225
        ]
      }
    },
    {
      "type": "Feature",
      "properties": {
        "Name": "Medina",
        "Describe": "Independent grocers with small veg. section",
        "Created by": "All",
        "Type": "Food"
      },
      "geometry": {
        "type": "Point",
        "coordinates": [
          -1.53230282367085,
          53.81563463338199
        ]
      }
    },
    {
      "type": "Feature",
      "properties": {
        "Name": "Stanton's Hardware Store",
        "Describe": "Indepent, friendly and remarkably well-stocked hardware store",
        "Created by": "Rebecca",
        "Type": "Hardware"
      },
      "geometry": {
        "type": "Point",
        "coordinates": [
          -1.517010864833865,
          53.811054379270885
        ]
      }
    },
    {
      "type": "Feature",
      "properties": {
        "Name": "Cantor Fish and Chip Bar",
        "Describe": "1:30 filling portion of chips - bit soft but in paper - will batter your food!",
        "Created by": "Clare",
        "Type": "Food"
      },
      "geometry": {
        "type": "Point",
        "coordinates": [
          -1.53104563455552,
          53.81736771996215
        ]
      }
    },
    {
      "type": "Feature",
      "properties": {
        "Name": "Skate park",
        "Describe": "Mini ramps + hangout spot",
        "Created by": "Robin",
        "Type": "Sports"
      },
      "geometry": {
        "type": "Point",
        "coordinates": [
          -1.5240097045898438,
          53.819250408517334
        ]
      }
    },
    {
      "type": "Feature",
      "properties": {
        "Name": "Train station!",
        "Describe": "Test ",
        "Created by": "test",
        "Type": "test"
      },
      "geometry": {
        "type": "Point",
        "coordinates": [
          -1.5481281280517578,
          53.7949223177007
        ]
      }
    },
    {
      "type": "Feature",
      "properties": {
        "Name": "Hasans",
        "Describe": "Vegetarian restaurant ",
        "Created by": "Cath",
        "Type": "Eat in"
      },
      "geometry": {
        "type": "Point",
        "coordinates": [
          -1.5378713607788086,
          53.80162662258455
        ]
      }
    },
    {
      "type": "Feature",
      "properties": {
        "Name": "Wharf Chambers",
        "Describe": "Cooperative bar",
        "Created by": "Luke",
        "Type": "Bar"
      },
      "geometry": {
        "type": "Point",
        "coordinates": [
          -1.5379813313484192,
          53.79542137542354
        ]
      }
    },
    {
      "type": "Feature",
      "properties": {
        "Name": "Meanwood Valley Urban Farm",
        "Describe": "Cheep bikes, good food, fun",
        "Created by": "Cath",
        "Type": "Food"
      },
      "geometry": {
        "type": "Point",
        "coordinates": [
          -1.550493836402893,
          53.81887989115229
        ]
      }
    },
    {
      "type": "Feature",
      "properties": {
        "Name": "Uni mushroomy path",
        "Describe": "Shaggy inkcaps here",
        "Created by": "Kat",
        "Type": "Foraging"
      },
      "geometry": {
        "type": "Point",
        "coordinates": [
          -1.5529534220695496,
          53.8068030320266
        ]
      }
    },
    {
      "type": "Feature",
      "properties": {
        "Name": "The Grove",
        "Describe": "Folk, bluegrass pub",
        "Created by": "Luke + Riley",
        "Type": "Bar"
      },
      "geometry": {
        "type": "Point",
        "coordinates": [
          -1.5478277206420898,
          53.79122118369246
        ]
      }
    },
    {
      "type": "Feature",
      "properties": {
        "Name": "Grove Cafe",
        "Describe": "Vegan Pizza and other afforbable goodies",
        "Created by": "Jason, Luke D's mate",
        "Type": "Eat in"
      },
      "geometry": {
        "type": "Point",
        "coordinates": [
          -1.5749287605285645,
          53.81043310682012
        ]
      }
    }
  ]
}